[
  {
    "line": "1호선",
    "name": "도봉산",
    "location": "도봉구 도봉동",
    "address": "서울특별시 도봉구 도봉로 964-33",
    "lat": "127.0460924",
    "lon": "37.6893427"
  },
  {
    "line": "1호선",
    "name": "도봉",
    "location": "도봉구 도봉동",
    "address": "서울특별시 도봉구 도봉로 170길 2",
    "lat": "127.045764",
    "lon": "37.6794492"
  },
  {
    "line": "1호선",
    "name": "방학",
    "location": "도봉구 방학동",
    "address": "서울특별시 도봉구 도봉로 150다길 3",
    "lat": "127.0444231",
    "lon": "37.6674787"
  },
  {
    "line": "1호선",
    "name": "창동",
    "location": "도봉구 창동",
    "address": "서울특별시 도봉구 마들로 11길 77",
    "lat": "127.0477009",
    "lon": "37.6537411"
  },
  {
    "line": "1호선",
    "name": "녹천",
    "location": "도봉구 창동",
    "address": "서울특별시 도봉구 덕릉로 376",
    "lat": "127.0510081",
    "lon": "37.6446074"
  },
  {
    "line": "1호선",
    "name": "월계",
    "location": "노원구 월계동",
    "address": "서울특별시 노원구 월계로 53길 40",
    "lat": "127.0587293",
    "lon": "37.6331221"
  },
  {
    "line": "1호선",
    "name": "광운대",
    "location": "노원구 월계동",
    "address": "서울특별시 노원구 석계로 98-2",
    "lat": "127.0617635",
    "lon": "37.6238375"
  },
  {
    "line": "1호선",
    "name": "석계",
    "location": "노원구 월계동",
    "address": "서울특별시 노원구 화랑로 341",
    "lat": "127.0656472",
    "lon": "37.6152316"
  },
  {
    "line": "1호선",
    "name": "신이문",
    "location": "동대문구 이문동",
    "address": "서울특별시 동대문구 한천로 472",
    "lat": "127.0695704",
    "lon": "37.6018374"
  },
  {
    "line": "1호선",
    "name": "외대앞",
    "location": "동대문구 이문동",
    "address": "서울특별시 동대문구 휘경로 27",
    "lat": "127.0630588",
    "lon": "37.5961646"
  },
  {
    "line": "1호선",
    "name": "회기",
    "location": "동대문구 휘경동",
    "address": "서울특별시 동대문구 회기로 196",
    "lat": "127.0580466",
    "lon": "37.5898099"
  },
  {
    "line": "1호선",
    "name": "청량리",
    "location": "동대문구 전농동",
    "address": "서울특별시 동대문구 왕산로 205",
    "lat": "127.0450512",
    "lon": "37.5800103"
  },
  {
    "line": "1호선",
    "name": "제기동",
    "location": "동대문구 제기동",
    "address": "서울특별시 동대문구 왕산로 93",
    "lat": "127.0346906",
    "lon": "37.5784106"
  },
  {
    "line": "1호선",
    "name": "신설동",
    "location": "동대문구 신설동",
    "address": "서울특별시 동대문구 왕산로 1",
    "lat": "127.0250937",
    "lon": "37.5760347"
  },
  {
    "line": "1호선",
    "name": "동묘앞",
    "location": "종로구 숭인동",
    "address": "서울특별시 종로구 종로 359",
    "lat": "127.0167512",
    "lon": "37.5732522"
  },
  {
    "line": "1호선",
    "name": "동대문",
    "location": "종로구 창신동",
    "address": "서울특별시 종로구 종로 302",
    "lat": "127.0111671",
    "lon": "37.5717669"
  },
  {
    "line": "1호선",
    "name": "종로5가",
    "location": "종로구 종로5가",
    "address": "서울특별시 종로구 종로 216",
    "lat": "127.0019167",
    "lon": "37.5710045"
  },
  {
    "line": "1호선",
    "name": "종로3가",
    "location": "종로구 종로3가",
    "address": "서울특별시 종로구 종로 129",
    "lat": "126.9920293",
    "lon": "37.5704368"
  },
  {
    "line": "1호선",
    "name": "종각",
    "location": "종로구 종로2가",
    "address": "서울특별시 종로구 종로 55",
    "lat": "126.9832397",
    "lon": "37.5701803"
  },
  {
    "line": "1호선",
    "name": "시청",
    "location": "중구 태평로1가",
    "address": "서울특별시 중구 세종대로 101",
    "lat": "126.9769832",
    "lon": "37.5654503"
  },
  {
    "line": "1호선",
    "name": "서울",
    "location": "중구 남대문로5가",
    "address": "서울특별시 중구 세종대로 2",
    "lat": "126.9725546",
    "lon": "37.555868"
  },
  {
    "line": "1호선",
    "name": "남영",
    "location": "용산구 갈월동",
    "address": "서울특별시 용산구 한강대로 77길 25",
    "lat": "126.9713325",
    "lon": "37.5406058"
  },
  {
    "line": "1호선",
    "name": "용산",
    "location": "용산구 한강로3가",
    "address": "서울특별시 용산구 한강대로 23길 55",
    "lat": "126.9647415",
    "lon": "37.529662"
  },
  {
    "line": "1호선",
    "name": "노량진",
    "location": "동작구 노량진동",
    "address": "서울특별시 동작구 노량진로 151",
    "lat": "126.9483698",
    "lon": "37.5140881"
  },
  {
    "line": "1호선",
    "name": "대방",
    "location": "영등포구 신길동",
    "address": "서울특별시 영등포구 여의대방로 300",
    "lat": "126.926303",
    "lon": "37.5134019"
  },
  {
    "line": "1호선",
    "name": "신길",
    "location": "영등포구 신길동",
    "address": "서울특별시 영등포구 영등포로 327",
    "lat": "126.9172249",
    "lon": "37.5170226"
  },
  {
    "line": "1호선",
    "name": "영등포",
    "location": "영등포구 영등포동",
    "address": "서울특별시 영등포구 경인로 102길 13",
    "lat": "126.9057498",
    "lon": "37.5157656"
  },
  {
    "line": "1호선",
    "name": "신도림",
    "location": "구로구 신도림동",
    "address": "서울특별시 구로구 새말로 117-21",
    "lat": "126.8910805",
    "lon": "37.509003"
  },
  {
    "line": "1호선",
    "name": "구로",
    "location": "구로구 구로동",
    "address": "서울특별시 구로구 구로중앙로 174",
    "lat": "126.8814915",
    "lon": "37.502916"
  },
  {
    "line": "1호선",
    "name": "가산디지털단지",
    "location": "금천구 가산동",
    "address": "서울특별시 금천구 벚꽃로 309",
    "lat": "126.8826247",
    "lon": "37.4815947"
  },
  {
    "line": "1호선",
    "name": "독산",
    "location": "금천구 가산동",
    "address": "서울특별시 금천구 벚꽃로 115",
    "lat": "126.8895142",
    "lon": "37.4662004"
  },
  {
    "line": "1호선",
    "name": "금천구청",
    "location": "금천구 시흥동",
    "address": "서울특별시 금천구 시흥대로 63길 91",
    "lat": "126.89475",
    "lon": "37.4556546"
  },
  {
    "line": "1호선",
    "name": "구일",
    "location": "구로구 구로동",
    "address": "서울특별시 구로구 구일로 133",
    "lat": "126.8699205",
    "lon": "37.4962832"
  },
  {
    "line": "1호선",
    "name": "개봉",
    "location": "구로구 개봉동",
    "address": "서울특별시 구로구 경인로 40길 47",
    "lat": "126.8591026",
    "lon": "37.4947085"
  },
  {
    "line": "1호선",
    "name": "오류동",
    "location": "구로구 오류동",
    "address": "서울특별시 구로구 경인로 20길 13",
    "lat": "126.8446007",
    "lon": "37.4944107"
  },
  {
    "line": "1호선",
    "name": "온수",
    "location": "구로구 온수동",
    "address": "서울특별시 구로구 부일로 872",
    "lat": "126.8240517",
    "lon": "37.4924435"
  },
  {
    "line": "2호선",
    "name": "시청",
    "location": "중구 태평로2가",
    "address": "서울특별시 중구 세종대로 101",
    "lat": "126.9769832",
    "lon": "37.563551"
  },
  {
    "line": "2호선",
    "name": "을지로입구",
    "location": "중구 을지로1가",
    "address": "서울특별시 중구 을지로 42",
    "lat": "126.982373",
    "lon": "37.5660649"
  },
  {
    "line": "2호선",
    "name": "을지로3가",
    "location": "중구 을지로2가",
    "address": "서울특별시 중구 을지로 106",
    "lat": "126.9903084",
    "lon": "37.5663026"
  },
  {
    "line": "2호선",
    "name": "을지로4가",
    "location": "중구 을지로4가",
    "address": "서울특별시 중구 을지로 178",
    "lat": "126.9978528",
    "lon": "37.566622"
  },
  {
    "line": "2호선",
    "name": "동대문역사문화공원",
    "location": "중구 을지로6가",
    "address": "서울특별시 중구 을지로 279",
    "lat": "127.0091315",
    "lon": "37.5656821"
  },
  {
    "line": "2호선",
    "name": "신당",
    "location": "중구 흥인동",
    "address": "서울특별시 중구 퇴계로 431-1",
    "lat": "127.0195406",
    "lon": "37.565679"
  },
  {
    "line": "2호선",
    "name": "상왕십리",
    "location": "성동구 하왕십리동",
    "address": "서울특별시 성동구 왕십리로 374",
    "lat": "127.0290313",
    "lon": "37.5645081"
  },
  {
    "line": "2호선",
    "name": "왕십리",
    "location": "성동구 행당동",
    "address": "서울특별시 성동구 왕십리로 300",
    "lat": "127.0366554",
    "lon": "37.5612593"
  },
  {
    "line": "2호선",
    "name": "한양대",
    "location": "성동구 행당동",
    "address": "서울특별시 성동구 왕십리로 206",
    "lat": "127.0435845",
    "lon": "37.5556275"
  },
  {
    "line": "2호선",
    "name": "뚝섬",
    "location": "성동구 성수동1가",
    "address": "서울특별시 성동구 아차산로 18",
    "lat": "127.0473652",
    "lon": "37.5472478"
  },
  {
    "line": "2호선",
    "name": "성수",
    "location": "성동구 성수동2가",
    "address": "서울특별시 성동구 아차산로 100",
    "lat": "127.0560905",
    "lon": "37.5445772"
  },
  {
    "line": "2호선",
    "name": "건대입구",
    "location": "광진구 자양동",
    "address": "서울특별시 광진구 아차산로 243",
    "lat": "127.0691733",
    "lon": "37.5403885"
  },
  {
    "line": "2호선",
    "name": "구의",
    "location": "광진구 구의동",
    "address": "서울특별시 광진구 아차산로 384-1",
    "lat": "127.0861792",
    "lon": "37.5371525"
  },
  {
    "line": "2호선",
    "name": "강변",
    "location": "광진구 구의동",
    "address": "서울특별시 광진구 강변역로 53",
    "lat": "127.0946887",
    "lon": "37.5351805"
  },
  {
    "line": "2호선",
    "name": "잠실나루",
    "location": "송파구 신천동",
    "address": "서울특별시 송파구 오금로 20",
    "lat": "127.103811",
    "lon": "37.5206689"
  },
  {
    "line": "2호선",
    "name": "잠실",
    "location": "송파구 잠실동",
    "address": "서울특별시 송파구 올림픽로 265",
    "lat": "127.1003127",
    "lon": "37.5133493"
  },
  {
    "line": "2호선",
    "name": "잠실새내",
    "location": "송파구 잠실동",
    "address": "서울특별시 송파구 올림픽로 140",
    "lat": "127.0863739",
    "lon": "37.5116314"
  },
  {
    "line": "2호선",
    "name": "종합운동장",
    "location": "송파구 잠실동",
    "address": "서울특별시 송파구 올림픽로 23",
    "lat": "127.0733561",
    "lon": "37.5110588"
  },
  {
    "line": "2호선",
    "name": "삼성",
    "location": "강남구 대치동",
    "address": "서울특별시 강남구 테헤란로 538",
    "lat": "127.063073",
    "lon": "37.5088803"
  },
  {
    "line": "2호선",
    "name": "선릉",
    "location": "강남구 역삼동",
    "address": "서울특별시 강남구 테헤란로 340",
    "lat": "127.0489425",
    "lon": "37.504525"
  },
  {
    "line": "2호선",
    "name": "역삼",
    "location": "강남구 역삼동",
    "address": "서울특별시 강남구 테헤란로 156",
    "lat": "127.0366182",
    "lon": "37.5008183"
  },
  {
    "line": "2호선",
    "name": "강남",
    "location": "강남구 역삼동",
    "address": "서울특별시 강남구 테헤란로 101 이즈타워",
    "lat": "127.0280314",
    "lon": "37.4979526"
  },
  {
    "line": "2호선",
    "name": "교대",
    "location": "서초구 서초동",
    "address": "서울특별시 서초구 서초대로 294",
    "lat": "127.0138384",
    "lon": "37.4939732"
  },
  {
    "line": "2호선",
    "name": "서초",
    "location": "서초구 서초동",
    "address": "서울특별시 서초구 서초대로 233",
    "lat": "127.0075808",
    "lon": "37.4918483"
  },
  {
    "line": "2호선",
    "name": "방배",
    "location": "서초구 방배동",
    "address": "서울특별시 서초구 방배로 80",
    "lat": "126.9976949",
    "lon": "37.481521"
  },
  {
    "line": "2호선",
    "name": "사당",
    "location": "서초구 방배동",
    "address": "서울특별시 동작구 남부순환로 2089",
    "lat": "126.981409",
    "lon": "37.4765793"
  },
  {
    "line": "2호선",
    "name": "낙성대",
    "location": "관악구 봉천동",
    "address": "서울특별시 관악구 남부순환로 1928",
    "lat": "126.96341",
    "lon": "37.4771259"
  },
  {
    "line": "2호선",
    "name": "서울대입구",
    "location": "관악구 봉천동",
    "address": "서울특별시 관악구 남부순환로 1822",
    "lat": "126.9526451",
    "lon": "37.4812195"
  },
  {
    "line": "2호선",
    "name": "봉천",
    "location": "관악구 봉천동",
    "address": "서울특별시 관악구 남부순환로 1721",
    "lat": "126.9414953",
    "lon": "37.4824857"
  },
  {
    "line": "2호선",
    "name": "신림",
    "location": "관악구 신림동",
    "address": "서울특별시 관악구 남부순환로 1614",
    "lat": "126.9298034",
    "lon": "37.484248"
  },
  {
    "line": "2호선",
    "name": "신대방",
    "location": "동작구 신대방동",
    "address": "서울특별시 동작구 대림로 2",
    "lat": "126.9131597",
    "lon": "37.4875291"
  },
  {
    "line": "2호선",
    "name": "구로디지털단지",
    "location": "영등포구 대림동",
    "address": "서울특별시 구로구 도림천로 477",
    "lat": "126.9014944",
    "lon": "37.485259"
  },
  {
    "line": "2호선",
    "name": "대림",
    "location": "영등포구 대림동",
    "address": "서울특별시 구로구 도림천로 351",
    "lat": "126.8949462",
    "lon": "37.4934037"
  },
  {
    "line": "2호선",
    "name": "신도림",
    "location": "구로구 신도림동",
    "address": "서울특별시 구로구 새말로 117-21",
    "lat": "126.8910805",
    "lon": "37.5086923"
  },
  {
    "line": "2호선",
    "name": "문래",
    "location": "영등포구 문래동3가",
    "address": "서울특별시 영등포구 당산로 28",
    "lat": "126.894763",
    "lon": "37.5179987"
  },
  {
    "line": "2호선",
    "name": "영등포구청",
    "location": "영등포구 당산동3가",
    "address": "서울특별시 영등포구 당산로 121",
    "lat": "126.8966269",
    "lon": "37.525823"
  },
  {
    "line": "2호선",
    "name": "당산",
    "location": "영등포구 당산동5가",
    "address": "서울특별시 영등포구 당산로 229",
    "lat": "126.9027307",
    "lon": "37.5349277"
  },
  {
    "line": "2호선",
    "name": "합정",
    "location": "마포구 합정동",
    "address": "서울특별시 마포구 양화로 55",
    "lat": "126.9146382",
    "lon": "37.5499338"
  },
  {
    "line": "2호선",
    "name": "홍대입구",
    "location": "마포구 동교동",
    "address": "서울특별시 마포구 양화로 160",
    "lat": "126.9236743",
    "lon": "37.5568478"
  },
  {
    "line": "2호선",
    "name": "신촌",
    "location": "마포구 노고산동",
    "address": "서울특별시 마포구 신촌로 90",
    "lat": "126.9361192",
    "lon": "37.5551786"
  },
  {
    "line": "2호선",
    "name": "이대",
    "location": "마포구 대흥동",
    "address": "서울특별시 마포구 신촌로 180",
    "lat": "126.9454989",
    "lon": "37.5567702"
  },
  {
    "line": "2호선",
    "name": "아현",
    "location": "서대문구 북아현동",
    "address": "서울특별시 마포구 신촌로 270",
    "lat": "126.9557389",
    "lon": "37.5573907"
  },
  {
    "line": "2호선",
    "name": "충정로",
    "location": "서대문구 충정로3가",
    "address": "서울특별시 서대문구 서소문로 17",
    "lat": "126.9644741",
    "lon": "37.5596596"
  },
  {
    "line": "2호선",
    "name": "용답",
    "location": "성동구 용답동",
    "address": "서울특별시 성동구 용답길 86",
    "lat": "127.0507293",
    "lon": "37.5621781"
  },
  {
    "line": "2호선",
    "name": "신답",
    "location": "성동구 용답동",
    "address": "서울특별시 성동구 천호대로 232",
    "lat": "127.0468202",
    "lon": "37.5698974"
  },
  {
    "line": "2호선",
    "name": "용두",
    "location": "동대문구 용두동",
    "address": "서울특별시 동대문구 천호대로 129",
    "lat": "127.0378335",
    "lon": "37.5739349"
  },
  {
    "line": "2호선",
    "name": "신설동",
    "location": "동대문구 신설동",
    "address": "서울특별시 동대문구 왕산로 1",
    "lat": "127.0250937",
    "lon": "37.5746287"
  },
  {
    "line": "2호선",
    "name": "신도림",
    "location": "구로구 신도림동",
    "address": "서울특별시 구로구 새말로 117-21",
    "lat": "126.8910805",
    "lon": "37.5086923"
  },
  {
    "line": "2호선",
    "name": "도림천",
    "location": "구로구 신도림동",
    "address": "서울특별시 구로구 경인로 67길 160",
    "lat": "126.8827026",
    "lon": "37.5144704"
  },
  {
    "line": "2호선",
    "name": "양천구청",
    "location": "양천구 신정동",
    "address": "서울특별시 양천구 목동로 3길 33",
    "lat": "126.8660652",
    "lon": "37.5123319"
  },
  {
    "line": "2호선",
    "name": "신정네거리",
    "location": "양천구 신정동",
    "address": "서울특별시 양천구 중앙로 261",
    "lat": "126.8527877",
    "lon": "37.5202198"
  },
  {
    "line": "2호선",
    "name": "까치산",
    "location": "강서구 화곡동",
    "address": "서울특별시 강서구 강서로 54",
    "lat": "126.8466116",
    "lon": "37.5314305"
  },
  {
    "line": "3호선",
    "name": "구파발",
    "location": "은평구 진관동",
    "address": "서울특별시 은평구 진관2로 15-25",
    "lat": "126.9187454",
    "lon": "37.6365903"
  },
  {
    "line": "3호선",
    "name": "연신내",
    "location": "은평구 갈현동",
    "address": "서울특별시 은평구 통일로 849",
    "lat": "126.9211621",
    "lon": "37.619062"
  },
  {
    "line": "3호선",
    "name": "불광",
    "location": "은평구 불광동",
    "address": "서울특별시 은평구 통일로 723-1",
    "lat": "126.9299858",
    "lon": "37.6100788"
  },
  {
    "line": "3호선",
    "name": "녹번",
    "location": "은평구 녹번동",
    "address": "서울특별시 은평구 통일로 602-1",
    "lat": "126.9360194",
    "lon": "37.6008785"
  },
  {
    "line": "3호선",
    "name": "홍제",
    "location": "서대문구 홍제동",
    "address": "서울특별시 서대문구 통일로 440-1",
    "lat": "126.9442423",
    "lon": "37.5888017"
  },
  {
    "line": "3호선",
    "name": "무악재",
    "location": "서대문구 홍제동",
    "address": "서울특별시 서대문구 통일로 361",
    "lat": "126.9503222",
    "lon": "37.5826698"
  },
  {
    "line": "3호선",
    "name": "독립문",
    "location": "서대문구 현저동",
    "address": "서울특별시 서대문구 통일로 247",
    "lat": "126.9577503",
    "lon": "37.5744604"
  },
  {
    "line": "3호선",
    "name": "경복궁",
    "location": "종로구 내자동",
    "address": "서울특별시 종로구 사직로 130",
    "lat": "126.9733437",
    "lon": "37.5758415"
  },
  {
    "line": "3호선",
    "name": "안국",
    "location": "종로구 안국동",
    "address": "서울특별시 종로구 율곡로 62",
    "lat": "126.985823",
    "lon": "37.5765653"
  },
  {
    "line": "3호선",
    "name": "종로3가",
    "location": "종로구 돈의동",
    "address": "서울특별시 종로구 돈화문로 30",
    "lat": "126.9919944",
    "lon": "37.5716551"
  },
  {
    "line": "3호선",
    "name": "을지로3가",
    "location": "중구 을지로3가",
    "address": "서울특별시 중구 을지로 129",
    "lat": "126.9926501",
    "lon": "37.566389"
  },
  {
    "line": "3호선",
    "name": "충무로",
    "location": "중구 필동1가",
    "address": "서울특별시 중구 퇴계로 199",
    "lat": "126.9941107",
    "lon": "37.5610743"
  },
  {
    "line": "3호선",
    "name": "동대입구",
    "location": "중구 장충동2가",
    "address": "서울특별시 중구 동호로 256",
    "lat": "127.0054602",
    "lon": "37.5590621"
  },
  {
    "line": "3호선",
    "name": "약수",
    "location": "중구 신당동",
    "address": "서울특별시 중구 다산로 122",
    "lat": "127.0108225",
    "lon": "37.5547147"
  },
  {
    "line": "3호선",
    "name": "금호",
    "location": "성동구 금호동3가",
    "address": "서울특별시 성동구 동호로 104",
    "lat": "127.0158937",
    "lon": "37.5482682"
  },
  {
    "line": "3호선",
    "name": "옥수",
    "location": "성동구 옥수동",
    "address": "서울특별시 성동구 동호로 21",
    "lat": "127.0189654",
    "lon": "37.5415999"
  },
  {
    "line": "3호선",
    "name": "압구정",
    "location": "강남구 압구정동",
    "address": "서울특별시 강남구 압구정로 172",
    "lat": "127.0282166",
    "lon": "37.5261521"
  },
  {
    "line": "3호선",
    "name": "신사",
    "location": "강남구 논현동",
    "address": "서울특별시 강남구 도산대로 102",
    "lat": "127.0203269",
    "lon": "37.5165645"
  },
  {
    "line": "3호선",
    "name": "잠원",
    "location": "서초구 잠원동",
    "address": "서울특별시 서초구 잠원로4길 46",
    "lat": "127.0112201",
    "lon": "37.5129682"
  },
  {
    "line": "3호선",
    "name": "고속터미널",
    "location": "서초구 잠원동",
    "address": "서울특별시 서초구 신반포로 188",
    "lat": "127.0049482",
    "lon": "37.504775"
  },
  {
    "line": "3호선",
    "name": "교대",
    "location": "서초구 서초동",
    "address": "서울특별시 서초구 서초대로 294",
    "lat": "127.014179",
    "lon": "37.491823"
  },
  {
    "line": "3호선",
    "name": "남부터미널",
    "location": "서초구 서초동",
    "address": "서울특별시 서초구 서초중앙로 31",
    "lat": "127.016207",
    "lon": "37.4849183"
  },
  {
    "line": "3호선",
    "name": "양재",
    "location": "서초구 서초동",
    "address": "서울특별시 서초구 남부순환로 2585",
    "lat": "127.0345442",
    "lon": "37.4845515"
  },
  {
    "line": "3호선",
    "name": "매봉",
    "location": "강남구 도곡동",
    "address": "서울특별시 강남구 남부순환로 2744",
    "lat": "127.0466146",
    "lon": "37.4870418"
  },
  {
    "line": "3호선",
    "name": "도곡",
    "location": "강남구 도곡동",
    "address": "서울특별시 강남구 남부순환로 2814",
    "lat": "127.0553234",
    "lon": "37.4909242"
  },
  {
    "line": "3호선",
    "name": "대치",
    "location": "강남구 대치동",
    "address": "서울특별시 강남구 남부순환로 2952",
    "lat": "127.0634302",
    "lon": "37.4945769"
  },
  {
    "line": "3호선",
    "name": "학여울",
    "location": "강남구 대치동",
    "address": "서울특별시 강남구 남부순환로 3104",
    "lat": "127.0719668",
    "lon": "37.4966999"
  },
  {
    "line": "3호선",
    "name": "대청",
    "location": "강남구 개포동",
    "address": "서울특별시 강남구 일원로 2",
    "lat": "127.0794937",
    "lon": "37.4936083"
  },
  {
    "line": "3호선",
    "name": "일원",
    "location": "강남구 일원동",
    "address": "서울특별시 강남구 일원로 121",
    "lat": "127.0844518",
    "lon": "37.4838766"
  },
  {
    "line": "3호선",
    "name": "수서",
    "location": "강남구 수서동",
    "address": "서울특별시 강남구 광평로 270",
    "lat": "127.1018592",
    "lon": "37.4874558"
  },
  {
    "line": "3호선",
    "name": "가락시장",
    "location": "송파구 가락동",
    "address": "서울특별시 송파구 송파대로 257",
    "lat": "127.1184858",
    "lon": "37.4923243"
  },
  {
    "line": "3호선",
    "name": "경찰병원",
    "location": "송파구 가락동",
    "address": "서울특별시 송파구 중대로 149",
    "lat": "127.1240678",
    "lon": "37.4957009"
  },
  {
    "line": "3호선",
    "name": "오금",
    "location": "송파구 오금동",
    "address": "서울특별시 송파구 오금로 321",
    "lat": "127.1278792",
    "lon": "37.5023171"
  },
  {
    "line": "4호선",
    "name": "당고개",
    "location": "노원구 상계동",
    "address": "서울특별시 노원구 상계로 305",
    "lat": "127.0790112",
    "lon": "37.6702656"
  },
  {
    "line": "4호선",
    "name": "상계",
    "location": "노원구 상계동",
    "address": "서울특별시 노원구 상계로 182",
    "lat": "127.0735754",
    "lon": "37.6605735"
  },
  {
    "line": "4호선",
    "name": "노원",
    "location": "노원구 상계동",
    "address": "서울특별시 노원구 상계로 69-1",
    "lat": "127.0630304",
    "lon": "37.6563525"
  },
  {
    "line": "4호선",
    "name": "창동",
    "location": "도봉구 창동",
    "address": "서울특별시 도봉구 마들로 11길 77",
    "lat": "127.0477009",
    "lon": "37.6531874"
  },
  {
    "line": "4호선",
    "name": "쌍문",
    "location": "도봉구 쌍문동",
    "address": "서울특별시 도봉구 도봉로 486-1",
    "lat": "127.0348808",
    "lon": "37.6486101"
  },
  {
    "line": "4호선",
    "name": "수유",
    "location": "강북구 수유동",
    "address": "서울특별시 강북구 도봉로 338",
    "lat": "127.0253569",
    "lon": "37.6378307"
  },
  {
    "line": "4호선",
    "name": "미아",
    "location": "강북구 미아동",
    "address": "서울특별시 강북구 도봉로 198",
    "lat": "127.0261035",
    "lon": "37.6264575"
  },
  {
    "line": "4호선",
    "name": "미아사거리",
    "location": "강북구 미아동",
    "address": "서울특별시 강북구 도봉로 50",
    "lat": "127.0300984",
    "lon": "37.613283"
  },
  {
    "line": "4호선",
    "name": "길음",
    "location": "성북구 길음동",
    "address": "서울특별시 성북구 동소문로 248",
    "lat": "127.0236736",
    "lon": "37.6032115"
  },
  {
    "line": "4호선",
    "name": "성신여대입구",
    "location": "성북구 동소문동5가",
    "address": "서울특별시 성북구 동소문로 102",
    "lat": "127.0164776",
    "lon": "37.5927287"
  },
  {
    "line": "4호선",
    "name": "한성대입구",
    "location": "성북구 동소문동1가",
    "address": "서울특별시 성북구 삼선교로 1",
    "lat": "127.0059504",
    "lon": "37.5884639"
  },
  {
    "line": "4호선",
    "name": "혜화",
    "location": "종로구 명륜4가",
    "address": "서울특별시 종로구 대학로 120",
    "lat": "127.0023149",
    "lon": "37.5821476"
  },
  {
    "line": "4호선",
    "name": "동대문",
    "location": "종로구 종로6가",
    "address": "서울특별시 종로구 율곡로 308",
    "lat": "127.0095466",
    "lon": "37.5709097"
  },
  {
    "line": "4호선",
    "name": "동대문역사문화공원",
    "location": "중구 을지로7가",
    "address": "서울특별시 중구 장충단로 230",
    "lat": "127.0075507",
    "lon": "37.5651445"
  },
  {
    "line": "4호선",
    "name": "충무로",
    "location": "중구 충무로4가",
    "address": "서울특별시 중구 퇴계로 199",
    "lat": "126.9941107",
    "lon": "37.5612694"
  },
  {
    "line": "4호선",
    "name": "명동",
    "location": "중구 남산동1가",
    "address": "서울특별시 중구 퇴계로 126",
    "lat": "126.9859471",
    "lon": "37.5609735"
  },
  {
    "line": "4호선",
    "name": "회현",
    "location": "중구 남창동",
    "address": "서울특별시 중구 퇴계로 54",
    "lat": "126.9782391",
    "lon": "37.5585365"
  },
  {
    "line": "4호선",
    "name": "서울역",
    "location": "중구 남대문로5가",
    "address": "서울특별시 용산구 한강대로 392",
    "lat": "126.9728054",
    "lon": "37.5530864"
  },
  {
    "line": "4호선",
    "name": "숙대입구",
    "location": "용산구 갈월동",
    "address": "서울특별시 용산구 한강대로 306",
    "lat": "126.9718723",
    "lon": "37.5446317"
  },
  {
    "line": "4호선",
    "name": "삼각지",
    "location": "용산구 한강로1가",
    "address": "서울특별시 용산구 한강대로 180",
    "lat": "126.9730111",
    "lon": "37.5344669"
  },
  {
    "line": "4호선",
    "name": "신용산",
    "location": "용산구 한강로2가",
    "address": "서울특별시 용산구 한강대로 112",
    "lat": "126.9682159",
    "lon": "37.5292118"
  },
  {
    "line": "4호선",
    "name": "이촌",
    "location": "용산구 용산동5가",
    "address": "서울특별시 용산구 서빙고로 83",
    "lat": "126.9736831",
    "lon": "37.5224312"
  },
  {
    "line": "4호선",
    "name": "동작",
    "location": "동작구 동작동",
    "address": "서울특별시 동작구 현충로 257",
    "lat": "126.9802684",
    "lon": "37.5029661"
  },
  {
    "line": "4호선",
    "name": "총신대입구",
    "location": "동작구 사당동",
    "address": "서울특별시 동작구 동작대로 117",
    "lat": "126.9821998",
    "lon": "37.4866678"
  },
  {
    "line": "4호선",
    "name": "사당",
    "location": "서초구 방배동",
    "address": "서울특별시 동작구 동작대로 3",
    "lat": "126.9815951",
    "lon": "37.4772357"
  },
  {
    "line": "4호선",
    "name": "남태령",
    "location": "서초구 방배동",
    "address": "서울특별시 서초구 과천대로 816",
    "lat": "126.9886565",
    "lon": "37.4642462"
  },
  {
    "line": "5호선",
    "name": "방화",
    "location": "강서구 방화동",
    "address": "서울특별시 강서구 금낭화로 132",
    "lat": "126.8126299",
    "lon": "37.5776425"
  },
  {
    "line": "5호선",
    "name": "개화산",
    "location": "강서구 방화동",
    "address": "서울특별시 강서구 양천로 22",
    "lat": "126.8060017",
    "lon": "37.5724873"
  },
  {
    "line": "5호선",
    "name": "김포공항",
    "location": "강서구 방화동",
    "address": "서울특별시 강서구 하늘길 77",
    "lat": "126.8012785",
    "lon": "37.5620016"
  },
  {
    "line": "5호선",
    "name": "송정",
    "location": "강서구 공항동",
    "address": "서울특별시 강서구 공항대로 33",
    "lat": "126.8110554",
    "lon": "37.5611976"
  },
  {
    "line": "5호선",
    "name": "마곡",
    "location": "강서구 마곡동",
    "address": "서울특별시 강서구 공항대로 163",
    "lat": "126.825548",
    "lon": "37.5598807"
  },
  {
    "line": "5호선",
    "name": "발산",
    "location": "강서구 마곡동",
    "address": "서울특별시 강서구 공항대로 267",
    "lat": "126.8373108",
    "lon": "37.5585454"
  },
  {
    "line": "5호선",
    "name": "우장산",
    "location": "강서구 내발산동",
    "address": "서울특별시 강서구 강서로 262",
    "lat": "126.836409",
    "lon": "37.5487935"
  },
  {
    "line": "5호선",
    "name": "화곡",
    "location": "강서구 화곡동",
    "address": "서울특별시 강서구 화곡로 168",
    "lat": "126.8404964",
    "lon": "37.5415982"
  },
  {
    "line": "5호선",
    "name": "까치산",
    "location": "강서구 화곡동",
    "address": "서울특별시 강서구 강서로 54",
    "lat": "126.8466116",
    "lon": "37.5321248"
  },
  {
    "line": "5호선",
    "name": "신정",
    "location": "양천구 신정동",
    "address": "서울특별시 양천구 오목로 179",
    "lat": "126.8572705",
    "lon": "37.5249872"
  },
  {
    "line": "5호선",
    "name": "목동",
    "location": "양천구 신정동",
    "address": "서울특별시 양천구 오목로 245",
    "lat": "126.8647426",
    "lon": "37.5260945"
  },
  {
    "line": "5호선",
    "name": "오목교",
    "location": "양천구 목동",
    "address": "서울특별시 양천구 오목로 342",
    "lat": "126.8753546",
    "lon": "37.5245635"
  },
  {
    "line": "5호선",
    "name": "양평",
    "location": "영등포구 양평동3가",
    "address": "서울특별시 영등포구 양산로 21",
    "lat": "126.8868656",
    "lon": "37.5256162"
  },
  {
    "line": "5호선",
    "name": "영등포구청",
    "location": "영등포구 당산동2가",
    "address": "서울특별시 영등포구 양산로 116",
    "lat": "126.8952891",
    "lon": "37.5242198"
  },
  {
    "line": "5호선",
    "name": "영등포시장",
    "location": "영등포구 영등포동5가",
    "address": "서울특별시 영등포구 양산로 200",
    "lat": "126.9049592",
    "lon": "37.5227315"
  },
  {
    "line": "5호선",
    "name": "신길",
    "location": "영등포구 영등포동1가",
    "address": "서울특별시 영등포구 경인로 114가길 9",
    "lat": "126.914337",
    "lon": "37.5176566"
  },
  {
    "line": "5호선",
    "name": "여의도",
    "location": "영등포구 여의도동",
    "address": "서울특별시 영등포구 여의나루로 40",
    "lat": "126.9244847",
    "lon": "37.5215199"
  },
  {
    "line": "5호선",
    "name": "여의나루",
    "location": "영등포구 여의도동",
    "address": "서울특별시 영등포구 여의동로 343",
    "lat": "126.932864",
    "lon": "37.5271503"
  },
  {
    "line": "5호선",
    "name": "마포",
    "location": "마포구 도화동",
    "address": "서울특별시 마포구 마포대로 33",
    "lat": "126.9459203",
    "lon": "37.5396112"
  },
  {
    "line": "5호선",
    "name": "공덕",
    "location": "마포구 도화동",
    "address": "서울특별시 마포구 마포대로 100",
    "lat": "126.9513638",
    "lon": "37.5439737"
  },
  {
    "line": "5호선",
    "name": "애오개",
    "location": "마포구 아현동",
    "address": "서울특별시 마포구 마포대로 210",
    "lat": "126.9566132",
    "lon": "37.5534356"
  },
  {
    "line": "5호선",
    "name": "충정로",
    "location": "서대문구 충정로3가",
    "address": "서울특별시 서대문구 충정로 28-1",
    "lat": "126.9633732",
    "lon": "37.560308"
  },
  {
    "line": "5호선",
    "name": "서대문",
    "location": "서대문구 충정로2가",
    "address": "서울특별시 종로구 통일로 126",
    "lat": "126.9666374",
    "lon": "37.5659878"
  },
  {
    "line": "5호선",
    "name": "광화문",
    "location": "종로구 당주동",
    "address": "서울특별시 종로구 세종대로 172",
    "lat": "126.9767879",
    "lon": "37.5716652"
  },
  {
    "line": "5호선",
    "name": "종로3가",
    "location": "종로구 낙원동",
    "address": "서울특별시 종로구 돈화문로 11길 26",
    "lat": "126.9899576",
    "lon": "37.5704368"
  },
  {
    "line": "5호선",
    "name": "을지로4가",
    "location": "중구 주교동",
    "address": "서울특별시 중구 창경궁로 51",
    "lat": "126.9980596",
    "lon": "37.5674054"
  },
  {
    "line": "5호선",
    "name": "동대문역사문화공원",
    "location": "중구 을지로7가",
    "address": "서울특별시 중구 마른내로 162",
    "lat": "127.0059162",
    "lon": "37.5647192"
  },
  {
    "line": "5호선",
    "name": "청구",
    "location": "중구 신당동",
    "address": "서울특별시 중구 청구로 77",
    "lat": "127.013806",
    "lon": "37.5602147"
  },
  {
    "line": "5호선",
    "name": "신금호",
    "location": "성동구 금호동1가",
    "address": "서울특별시 성동구 금호로 154",
    "lat": "127.0200642",
    "lon": "37.5544704"
  },
  {
    "line": "5호선",
    "name": "행당",
    "location": "성동구 행당동",
    "address": "서울특별시 성동구 행당로 89",
    "lat": "127.0288996",
    "lon": "37.55741"
  },
  {
    "line": "5호선",
    "name": "왕십리",
    "location": "성동구 행당동",
    "address": "서울특별시 성동구 왕십리로 300",
    "lat": "127.0366554",
    "lon": "37.5618331"
  },
  {
    "line": "5호선",
    "name": "마장",
    "location": "성동구 마장동",
    "address": "서울특별시 성동구 마장로 296",
    "lat": "127.0431635",
    "lon": "37.5661357"
  },
  {
    "line": "5호선",
    "name": "답십리",
    "location": "성동구 용답동",
    "address": "서울특별시 성동구 천호대로 300",
    "lat": "127.0531809",
    "lon": "37.567096"
  },
  {
    "line": "5호선",
    "name": "장한평",
    "location": "성동구 용답동",
    "address": "서울특별시 동대문구 천호대로 405",
    "lat": "127.0641904",
    "lon": "37.5614836"
  },
  {
    "line": "5호선",
    "name": "군자",
    "location": "광진구 군자동",
    "address": "서울특별시 광진구 천호대로 550",
    "lat": "127.0790173",
    "lon": "37.5571918"
  },
  {
    "line": "5호선",
    "name": "아차산",
    "location": "광진구 능동",
    "address": "서울특별시 광진구 천호대로 657",
    "lat": "127.0893706",
    "lon": "37.5520394"
  },
  {
    "line": "5호선",
    "name": "광나루",
    "location": "광진구 광장동",
    "address": "서울특별시 광진구 아차산로 571",
    "lat": "127.1036865",
    "lon": "37.5453391"
  },
  {
    "line": "5호선",
    "name": "천호",
    "location": "송파구 풍납동",
    "address": "서울특별시 강동구 천호대로 997",
    "lat": "127.1233121",
    "lon": "37.5385953"
  },
  {
    "line": "5호선",
    "name": "강동",
    "location": "강동구 성내동",
    "address": "서울특별시 강동구 천호대로 1097",
    "lat": "127.1335296",
    "lon": "37.5359577"
  },
  {
    "line": "5호선",
    "name": "길동",
    "location": "강동구 길동",
    "address": "서울특별시 강동구 양재대로 1480",
    "lat": "127.1399992",
    "lon": "37.5377764"
  },
  {
    "line": "5호선",
    "name": "굽은다리",
    "location": "강동구 명일동",
    "address": "서울특별시 강동구 양재대로 1572",
    "lat": "127.1429708",
    "lon": "37.5455462"
  },
  {
    "line": "5호선",
    "name": "명일",
    "location": "강동구 명일동",
    "address": "서울특별시 강동구 양재대로 1632",
    "lat": "127.1440009",
    "lon": "37.5513173"
  },
  {
    "line": "5호선",
    "name": "고덕",
    "location": "강동구 고덕동",
    "address": "서울특별시 강동구 고덕로 253",
    "lat": "127.1539494",
    "lon": "37.5550582"
  },
  {
    "line": "5호선",
    "name": "상일동",
    "location": "강동구 고덕동",
    "address": "서울특별시 강동구 고덕로 359",
    "lat": "127.1658292",
    "lon": "37.5566052"
  },
  {
    "line": "5호선",
    "name": "둔촌동",
    "location": "강동구 성내동",
    "address": "서울특별시 강동구 양재대로 1369",
    "lat": "127.1363753",
    "lon": "37.5276644"
  },
  {
    "line": "5호선",
    "name": "올림픽공원",
    "location": "송파구 방이동",
    "address": "서울특별시 송파구 양재대로 1233",
    "lat": "127.1306002",
    "lon": "37.5158851"
  },
  {
    "line": "5호선",
    "name": "방이",
    "location": "송파구 방이동",
    "address": "서울특별시 송파구 양재대로 1127",
    "lat": "127.1258547",
    "lon": "37.5085664"
  },
  {
    "line": "5호선",
    "name": "오금",
    "location": "송파구 오금동",
    "address": "서울특별시 송파구 오금로 321",
    "lat": "127.1278792",
    "lon": "37.5022829"
  },
  {
    "line": "5호선",
    "name": "개롱",
    "location": "송파구 가락동",
    "address": "서울특별시 송파구 오금로 402",
    "lat": "127.1351586",
    "lon": "37.4979727"
  },
  {
    "line": "5호선",
    "name": "거여",
    "location": "송파구 거여동",
    "address": "서울특별시 송파구 오금로 499",
    "lat": "127.1440323",
    "lon": "37.4934295"
  },
  {
    "line": "5호선",
    "name": "마천",
    "location": "송파구 마천동",
    "address": "서울특별시 송파구 마천로 57길 7",
    "lat": "127.1523206",
    "lon": "37.4950271"
  },
  {
    "line": "6호선",
    "name": "응암",
    "location": "은평구 신사동",
    "address": "서울특별시 은평구 증산로 477",
    "lat": "126.9155128",
    "lon": "37.5984816"
  },
  {
    "line": "6호선",
    "name": "역촌",
    "location": "은평구 역촌동",
    "address": "서울특별시 은평구 서오릉로 63",
    "lat": "126.9229679",
    "lon": "37.6063235"
  },
  {
    "line": "6호선",
    "name": "불광",
    "location": "은평구 불광동",
    "address": "서울특별시 은평구 통일로 723-1",
    "lat": "126.9299858",
    "lon": "37.6109458"
  },
  {
    "line": "6호선",
    "name": "독바위",
    "location": "은평구 불광동",
    "address": "서울특별시 은평구 불광로 129-1",
    "lat": "126.9328102",
    "lon": "37.6183967"
  },
  {
    "line": "6호선",
    "name": "연신내",
    "location": "은평구 갈현동",
    "address": "서울특별시 은평구 통일로 849",
    "lat": "126.9211621",
    "lon": "37.6185603"
  },
  {
    "line": "6호선",
    "name": "구산",
    "location": "은평구 대조동",
    "address": "서울특별시 은평구 연서로 137-1",
    "lat": "126.9171824",
    "lon": "37.6113339"
  },
  {
    "line": "6호선",
    "name": "새절",
    "location": "은평구 신사동",
    "address": "서울특별시 은평구 증산로 400",
    "lat": "126.913912",
    "lon": "37.5910234"
  },
  {
    "line": "6호선",
    "name": "증산",
    "location": "은평구 증산동",
    "address": "서울특별시 은평구 증산로 306",
    "lat": "126.9100576",
    "lon": "37.5839423"
  },
  {
    "line": "6호선",
    "name": "디지털미디어시티",
    "location": "마포구 상암동",
    "address": "서울특별시 은평구 수색로 175",
    "lat": "126.9019286",
    "lon": "37.5764053"
  },
  {
    "line": "6호선",
    "name": "월드컵경기장",
    "location": "마포구 성산동",
    "address": "서울특별시 마포구 월드컵로 240",
    "lat": "126.8972733",
    "lon": "37.569721"
  },
  {
    "line": "6호선",
    "name": "마포구청",
    "location": "마포구 성산동",
    "address": "서울특별시 마포구 월드컵로 190",
    "lat": "126.903357",
    "lon": "37.5634038"
  },
  {
    "line": "6호선",
    "name": "망원",
    "location": "마포구 망원동",
    "address": "서울특별시 마포구 월드컵로 77",
    "lat": "126.9100339",
    "lon": "37.5560693"
  },
  {
    "line": "6호선",
    "name": "합정",
    "location": "마포구 합정동",
    "address": "서울특별시 마포구 양화로 45",
    "lat": "126.9131909",
    "lon": "37.5492896"
  },
  {
    "line": "6호선",
    "name": "상수",
    "location": "마포구 상수동",
    "address": "서울특별시 마포구 독막로 85",
    "lat": "126.9224099",
    "lon": "37.5477484"
  },
  {
    "line": "6호선",
    "name": "광흥창",
    "location": "마포구 창전동",
    "address": "서울특별시 마포구 독막로 165",
    "lat": "126.9319392",
    "lon": "37.5474876"
  },
  {
    "line": "6호선",
    "name": "대흥",
    "location": "마포구 대흥동",
    "address": "서울특별시 마포구 대흥로 85",
    "lat": "126.9424653",
    "lon": "37.5477063"
  },
  {
    "line": "6호선",
    "name": "공덕",
    "location": "마포구 도화동",
    "address": "서울특별시 마포구 백범로 200",
    "lat": "126.9519475",
    "lon": "37.5435299"
  },
  {
    "line": "6호선",
    "name": "효창공원앞",
    "location": "용산구 효창동",
    "address": "서울특별시 용산구 백범로 287",
    "lat": "126.9612259",
    "lon": "37.5392324"
  },
  {
    "line": "6호선",
    "name": "삼각지",
    "location": "용산구 한강로1가",
    "address": "서울특별시 용산구 한강대로 185",
    "lat": "126.9740805",
    "lon": "37.5356134"
  },
  {
    "line": "6호선",
    "name": "녹사평",
    "location": "용산구 용산동2가",
    "address": "서울특별시 용산구 녹사평대로 195",
    "lat": "126.9870285",
    "lon": "37.5345827"
  },
  {
    "line": "6호선",
    "name": "이태원",
    "location": "용산구 이태원동",
    "address": "서울특별시 용산구 이태원로 177",
    "lat": "126.9937216",
    "lon": "37.5345411"
  },
  {
    "line": "6호선",
    "name": "한강진",
    "location": "용산구 한남동",
    "address": "서울특별시 용산구 이태원로 287",
    "lat": "127.0017483",
    "lon": "37.539831"
  },
  {
    "line": "6호선",
    "name": "버티고개",
    "location": "중구 신당동",
    "address": "서울특별시 중구 다산로 38",
    "lat": "127.007085",
    "lon": "37.5481391"
  },
  {
    "line": "6호선",
    "name": "약수",
    "location": "중구 신당동",
    "address": "서울특별시 중구 다산로 115",
    "lat": "127.0101205",
    "lon": "37.5547147"
  },
  {
    "line": "6호선",
    "name": "청구",
    "location": "중구 신당동",
    "address": "서울특별시 중구 청구로 77",
    "lat": "127.013806",
    "lon": "37.5602147"
  },
  {
    "line": "6호선",
    "name": "신당",
    "location": "중구 흥인동",
    "address": "서울특별시 중구 다산로 260",
    "lat": "127.0161535",
    "lon": "37.5660688"
  },
  {
    "line": "6호선",
    "name": "동묘앞",
    "location": "종로구 숭인동",
    "address": "서울특별시 종로구 지봉로 24",
    "lat": "127.0159796",
    "lon": "37.5723499"
  },
  {
    "line": "6호선",
    "name": "창신",
    "location": "종로구 창신동",
    "address": "서울특별시 종로구 지봉로 112",
    "lat": "127.0152112",
    "lon": "37.5793692"
  },
  {
    "line": "6호선",
    "name": "보문",
    "location": "성북구 보문동2가",
    "address": "서울특별시 성북구 보문로 116",
    "lat": "127.0194953",
    "lon": "37.5853398"
  },
  {
    "line": "6호선",
    "name": "안암",
    "location": "성북구 안암동5가",
    "address": "서울특별시 성북구 인촌로 89",
    "lat": "127.0291551",
    "lon": "37.5863043"
  },
  {
    "line": "6호선",
    "name": "고려대",
    "location": "성북구 종암동",
    "address": "서울특별시 성북구 종암로 1",
    "lat": "127.0362849",
    "lon": "37.5904058"
  },
  {
    "line": "6호선",
    "name": "월곡",
    "location": "성북구 하월곡동",
    "address": "서울특별시 성북구 월곡로 107",
    "lat": "127.0411848",
    "lon": "37.6019332"
  },
  {
    "line": "6호선",
    "name": "상월곡",
    "location": "성북구 상월곡동",
    "address": "서울특별시 성북구 화랑로 157",
    "lat": "127.0483266",
    "lon": "37.6066079"
  },
  {
    "line": "6호선",
    "name": "돌곶이",
    "location": "성북구 석관동",
    "address": "서울특별시 성북구 화랑로 243",
    "lat": "127.0564252",
    "lon": "37.6105008"
  },
  {
    "line": "6호선",
    "name": "석계",
    "location": "노원구 월계동",
    "address": "서울특별시 노원구 화랑로 347-1",
    "lat": "127.0661184",
    "lon": "37.6148559"
  },
  {
    "line": "6호선",
    "name": "태릉입구",
    "location": "노원구 공릉동",
    "address": "서울특별시 노원구 동일로 992-1",
    "lat": "127.0753683",
    "lon": "37.6173467"
  },
  {
    "line": "6호선",
    "name": "화랑대",
    "location": "노원구 공릉동",
    "address": "서울특별시 노원구 화랑로 510",
    "lat": "127.0837446",
    "lon": "37.6198329"
  },
  {
    "line": "6호선",
    "name": "봉화산",
    "location": "중랑구 신내동",
    "address": "서울특별시 중랑구 신내로 232",
    "lat": "127.0907581",
    "lon": "37.6173794"
  },
  {
    "line": "7호선",
    "name": "도봉산",
    "location": "도봉구 도봉동",
    "address": "서울특별시 도봉구 도봉로 964-40",
    "lat": "127.0465288",
    "lon": "37.6890269"
  },
  {
    "line": "7호선",
    "name": "수락산",
    "location": "노원구 상계동",
    "address": "서울특별시 노원구 동일로 1662",
    "lat": "127.0553746",
    "lon": "37.6778893"
  },
  {
    "line": "7호선",
    "name": "마들",
    "location": "노원구 상계동",
    "address": "서울특별시 노원구 동일로 1530-1",
    "lat": "127.0576877",
    "lon": "37.6653826"
  },
  {
    "line": "7호선",
    "name": "노원",
    "location": "노원구 상계동",
    "address": "서울특별시 노원구 동일로 1409",
    "lat": "127.0605175",
    "lon": "37.6546992"
  },
  {
    "line": "7호선",
    "name": "중계",
    "location": "노원구 중계동",
    "address": "서울특별시 노원구 동일로 1308-1",
    "lat": "127.0642467",
    "lon": "37.6451447"
  },
  {
    "line": "7호선",
    "name": "하계",
    "location": "노원구 하계동",
    "address": "서울특별시 노원구 동일로 1196",
    "lat": "127.0679885",
    "lon": "37.6365692"
  },
  {
    "line": "7호선",
    "name": "공릉",
    "location": "노원구 공릉동",
    "address": "서울특별시 노원구 동일로 1074",
    "lat": "127.0730053",
    "lon": "37.6257945"
  },
  {
    "line": "7호선",
    "name": "태릉입구",
    "location": "노원구 공릉동",
    "address": "서울특별시 노원구 동일로 992-1",
    "lat": "127.0753683",
    "lon": "37.6185038"
  },
  {
    "line": "7호선",
    "name": "먹골",
    "location": "중랑구 묵동",
    "address": "서울특별시 중랑구 동일로 901",
    "lat": "127.0777647",
    "lon": "37.6107877"
  },
  {
    "line": "7호선",
    "name": "중화",
    "location": "중랑구 중화동",
    "address": "서울특별시 중랑구 동일로 797",
    "lat": "127.0794692",
    "lon": "37.6025797"
  },
  {
    "line": "7호선",
    "name": "상봉",
    "location": "중랑구 상봉동",
    "address": "서울특별시 중랑구 망우로 297",
    "lat": "127.0857201",
    "lon": "37.5956271"
  },
  {
    "line": "7호선",
    "name": "면목",
    "location": "중랑구 면목동",
    "address": "서울특별시 중랑구 면목로 407",
    "lat": "127.0875678",
    "lon": "37.5887531"
  },
  {
    "line": "7호선",
    "name": "사가정",
    "location": "중랑구 면목동",
    "address": "서울특별시 중랑구 사가정로 393",
    "lat": "127.088439",
    "lon": "37.5809733"
  },
  {
    "line": "7호선",
    "name": "용마산",
    "location": "중랑구 면목동",
    "address": "서울특별시 중랑구 용마산로 227",
    "lat": "127.0870381",
    "lon": "37.5738011"
  },
  {
    "line": "7호선",
    "name": "중곡",
    "location": "광진구 중곡동",
    "address": "서울특별시 광진구 능동로 417",
    "lat": "127.0840725",
    "lon": "37.5655429"
  },
  {
    "line": "7호선",
    "name": "군자",
    "location": "광진구 중곡동",
    "address": "서울특별시 광진구 천호대로 550",
    "lat": "127.0790173",
    "lon": "37.557453"
  },
  {
    "line": "7호선",
    "name": "어린이대공원",
    "location": "광진구 능동",
    "address": "서울특별시 광진구 능동로 210",
    "lat": "127.0745499",
    "lon": "37.5479129"
  },
  {
    "line": "7호선",
    "name": "건대입구",
    "location": "광진구 화양동",
    "address": "서울특별시 광진구 능동로 110",
    "lat": "127.0714121",
    "lon": "37.5407981"
  },
  {
    "line": "7호선",
    "name": "뚝섬유원지",
    "location": "광진구 자양동",
    "address": "서울특별시 광진구 능동로 10",
    "lat": "127.0667177",
    "lon": "37.5315528"
  },
  {
    "line": "7호선",
    "name": "청담",
    "location": "강남구 청담동",
    "address": "서울특별시 강남구 학동로 508",
    "lat": "127.0520384",
    "lon": "37.5194904"
  },
  {
    "line": "7호선",
    "name": "강남구청",
    "location": "강남구 논현동",
    "address": "서울특별시 강남구 학동로 346",
    "lat": "127.0413014",
    "lon": "37.5171727"
  },
  {
    "line": "7호선",
    "name": "학동",
    "location": "강남구 논현동",
    "address": "서울특별시 강남구 학동로 180",
    "lat": "127.0314638",
    "lon": "37.5142532"
  },
  {
    "line": "7호선",
    "name": "논현",
    "location": "강남구 논현동",
    "address": "서울특별시 강남구 학동로 102",
    "lat": "127.0216578",
    "lon": "37.511129"
  },
  {
    "line": "7호선",
    "name": "반포",
    "location": "서초구 잠원동",
    "address": "서울특별시 서초구 신반포로 241",
    "lat": "127.011497",
    "lon": "37.5082219"
  },
  {
    "line": "7호선",
    "name": "고속터미널",
    "location": "서초구 잠원동",
    "address": "서울특별시 서초구 신반포로 188",
    "lat": "127.0049482",
    "lon": "37.5034948"
  },
  {
    "line": "7호선",
    "name": "내방",
    "location": "서초구 방배동",
    "address": "서울특별시 서초구 서초대로 103",
    "lat": "126.9931903",
    "lon": "37.4876043"
  },
  {
    "line": "7호선",
    "name": "이수",
    "location": "동작구 사당동",
    "address": "서울특별시 동작구 사당로 310",
    "lat": "126.9810218",
    "lon": "37.4853899"
  },
  {
    "line": "7호선",
    "name": "남성",
    "location": "동작구 사당동",
    "address": "서울특별시 동작구 사당로 218",
    "lat": "126.9717061",
    "lon": "37.4848845"
  },
  {
    "line": "7호선",
    "name": "숭실대입구",
    "location": "동작구 상도동",
    "address": "서울특별시 동작구 상도로 378",
    "lat": "126.9540603",
    "lon": "37.4957738"
  },
  {
    "line": "7호선",
    "name": "상도",
    "location": "동작구 상도1동",
    "address": "서울특별시 동작구 상도로 272",
    "lat": "126.9477004",
    "lon": "37.5030818"
  },
  {
    "line": "7호선",
    "name": "장승배기",
    "location": "동작구 상도동",
    "address": "서울특별시 동작구 상도로 188",
    "lat": "126.9387444",
    "lon": "37.5049168"
  },
  {
    "line": "7호선",
    "name": "신대방삼거리",
    "location": "동작구 대방동",
    "address": "서울특별시 동작구 상도로 76",
    "lat": "126.9282229",
    "lon": "37.4997148"
  },
  {
    "line": "7호선",
    "name": "보라매",
    "location": "동작구 대방동",
    "address": "서울특별시 동작구 상도로 2",
    "lat": "126.9204894",
    "lon": "37.4999381"
  },
  {
    "line": "7호선",
    "name": "신풍",
    "location": "영등포구 신길동",
    "address": "서울특별시 영등포구 신풍로 27",
    "lat": "126.9098417",
    "lon": "37.5001394"
  },
  {
    "line": "7호선",
    "name": "대림",
    "location": "영등포구 대림동",
    "address": "서울특별시 영등포구 도림로 137",
    "lat": "126.8966119",
    "lon": "37.4928168"
  },
  {
    "line": "7호선",
    "name": "남구로",
    "location": "구로구 구로동",
    "address": "서울특별시 구로구 도림로 7",
    "lat": "126.8873411",
    "lon": "37.4861066"
  },
  {
    "line": "7호선",
    "name": "가산디지털단지",
    "location": "금천구 가산동",
    "address": "서울특별시 금천구 벚꽃로 309",
    "lat": "126.8826247",
    "lon": "37.4803999"
  },
  {
    "line": "7호선",
    "name": "천왕",
    "location": "구로구 오류동",
    "address": "서울특별시 구로구 오리로 1154",
    "lat": "126.8387137",
    "lon": "37.4867557"
  },
  {
    "line": "7호선",
    "name": "온수",
    "location": "구로구 온수동",
    "address": "서울특별시 구로구 경인로 3길 64",
    "lat": "126.8233807",
    "lon": "37.4919758"
  },
  {
    "line": "8호선",
    "name": "암사",
    "location": "강동구 암사동",
    "address": "서울특별시 강동구 올림픽로 776",
    "lat": "127.1275403",
    "lon": "37.5501553"
  },
  {
    "line": "8호선",
    "name": "천호",
    "location": "송파구 풍납동",
    "address": "서울특별시 강동구 천호대로 997",
    "lat": "127.1233121",
    "lon": "37.5380076"
  },
  {
    "line": "8호선",
    "name": "강동구청",
    "location": "송파구 풍납동",
    "address": "서울특별시 강동구 올림픽로 550",
    "lat": "127.120576",
    "lon": "37.5305161"
  },
  {
    "line": "8호선",
    "name": "몽촌토성",
    "location": "송파구 신천동",
    "address": "서울특별시 송파구 올림픽로 383",
    "lat": "127.1124299",
    "lon": "37.5176482"
  },
  {
    "line": "8호선",
    "name": "잠실",
    "location": "송파구 잠실동",
    "address": "서울특별시 송파구 올림픽로 305",
    "lat": "127.1042164",
    "lon": "37.5147736"
  },
  {
    "line": "8호선",
    "name": "석촌",
    "location": "송파구 석촌동",
    "address": "서울특별시 송파구 송파대로 439",
    "lat": "127.1063454",
    "lon": "37.5055675"
  },
  {
    "line": "8호선",
    "name": "송파",
    "location": "송파구 가락동",
    "address": "서울특별시 송파구 송파대로 354",
    "lat": "127.1121799",
    "lon": "37.499678"
  },
  {
    "line": "8호선",
    "name": "가락시장",
    "location": "송파구 가락동",
    "address": "서울특별시 송파구 송파대로 257",
    "lat": "127.1184858",
    "lon": "37.492962"
  },
  {
    "line": "8호선",
    "name": "문정",
    "location": "송파구 문정동",
    "address": "서울특별시 송파구 송파대로 179",
    "lat": "127.1222903",
    "lon": "37.4859777"
  },
  {
    "line": "8호선",
    "name": "장지",
    "location": "송파구 문정동",
    "address": "서울특별시 송파구 송파대로 82",
    "lat": "127.1264241",
    "lon": "37.4786947"
  },
  {
    "line": "8호선",
    "name": "복정",
    "location": "송파구 장지동",
    "address": "서울특별시 송파구 송파대로 6",
    "lat": "127.1267713",
    "lon": "37.4710139"
  },
  {
    "line": "9호선",
    "name": "개화",
    "location": "강서구 개화동",
    "address": "서울특별시 강서구 개화동로 8길 38",
    "lat": "126.7956685",
    "lon": "37.5785872"
  },
  {
    "line": "9호선",
    "name": "김포공항",
    "location": "강서구 방화동",
    "address": "서울특별시 강서구 하늘길 77",
    "lat": "126.8012785",
    "lon": "37.5618902"
  },
  {
    "line": "9호선",
    "name": "공항시장",
    "location": "강서구 방화동",
    "address": "서울특별시 강서구 방화동로 30",
    "lat": "126.8104923",
    "lon": "37.563793"
  },
  {
    "line": "9호선",
    "name": "신방화",
    "location": "강서구 방화동",
    "address": "서울특별시 강서구 방화대로 301",
    "lat": "126.8165246",
    "lon": "37.5674855"
  },
  {
    "line": "9호선",
    "name": "마곡나루",
    "location": "강서구 마곡동",
    "address": "서울특별시 강서구 마곡중앙5로 2",
    "lat": "126.8275182",
    "lon": "37.5667697"
  },
  {
    "line": "9호선",
    "name": "양천향교",
    "location": "강서구 마곡동",
    "address": "서울특별시 강서구 양천로 341",
    "lat": "126.8408178",
    "lon": "37.568116"
  },
  {
    "line": "9호선",
    "name": "가양",
    "location": "강서구 가양동",
    "address": "서울특별시 강서구 양천로 485",
    "lat": "126.8543882",
    "lon": "37.5615634"
  },
  {
    "line": "9호선",
    "name": "증미",
    "location": "강서구 등촌동",
    "address": "서울특별시 강서구 양천로 560",
    "lat": "126.8612469",
    "lon": "37.5581395"
  },
  {
    "line": "9호선",
    "name": "등촌",
    "location": "강서구 등촌동",
    "address": "서울특별시 강서구 공항대로 529",
    "lat": "126.8649501",
    "lon": "37.550692"
  },
  {
    "line": "9호선",
    "name": "염창",
    "location": "강서구 염창동",
    "address": "서울특별시 강서구 공항대로 631",
    "lat": "126.875005",
    "lon": "37.5469747"
  },
  {
    "line": "9호선",
    "name": "신목동",
    "location": "양천구 목동",
    "address": "서울특별시 양천구 목동중앙로 217",
    "lat": "126.8827535",
    "lon": "37.5442771"
  },
  {
    "line": "9호선",
    "name": "선유도",
    "location": "영등포구 양평동5가",
    "address": "서울특별시 영등포구 양평로 124",
    "lat": "126.8934204",
    "lon": "37.5378653"
  },
  {
    "line": "9호선",
    "name": "당산",
    "location": "영등포구 당산동5가",
    "address": "서울특별시 영등포구 양평로 40",
    "lat": "126.9021715",
    "lon": "37.5338782"
  },
  {
    "line": "9호선",
    "name": "국회의사당",
    "location": "영등포구 여의도동",
    "address": "서울특별시 영등포구 국회대로 758",
    "lat": "126.9178856",
    "lon": "37.5281375"
  },
  {
    "line": "9호선",
    "name": "여의도",
    "location": "영등포구 여의도동",
    "address": "서울특별시 영등포구 의사당대로 101",
    "lat": "126.9239689",
    "lon": "37.5218982"
  },
  {
    "line": "9호선",
    "name": "샛강",
    "location": "영등포구 여의도동",
    "address": "서울특별시 영등포구 의사당대로 166",
    "lat": "126.9290796",
    "lon": "37.5167465"
  },
  {
    "line": "9호선",
    "name": "노량진",
    "location": "동작구 노량진동",
    "address": "서울특별시 동작구 노량진로 130",
    "lat": "126.9408265",
    "lon": "37.5136153"
  },
  {
    "line": "9호선",
    "name": "노들",
    "location": "동작구 본동",
    "address": "서울특별시 동작구 노량진로 238",
    "lat": "126.9530641",
    "lon": "37.5129044"
  },
  {
    "line": "9호선",
    "name": "흑석",
    "location": "동작구 흑석동",
    "address": "서울특별시 동작구 현충로 90",
    "lat": "126.9635701",
    "lon": "37.5091762"
  },
  {
    "line": "9호선",
    "name": "동작",
    "location": "동작구 동작동",
    "address": "서울특별시 동작구 현충로 220",
    "lat": "126.9779372",
    "lon": "37.503199"
  },
  {
    "line": "9호선",
    "name": "구반포",
    "location": "서초구 반포동",
    "address": "서울특별시 서초구 신반포로 17",
    "lat": "126.9873749",
    "lon": "37.50144"
  },
  {
    "line": "9호선",
    "name": "신반포",
    "location": "서초구 반포동",
    "address": "서울특별시 서초구 신반포로 105",
    "lat": "126.9958989",
    "lon": "37.5034961"
  },
  {
    "line": "9호선",
    "name": "고속터미널",
    "location": "서초구 잠원동",
    "address": "서울특별시 서초구 신반포로 188",
    "lat": "127.0049482",
    "lon": "37.5060134"
  },
  {
    "line": "9호선",
    "name": "사평",
    "location": "서초구 반포동",
    "address": "서울특별시 서초구 사평대로 285",
    "lat": "127.0154343",
    "lon": "37.5044561"
  },
  {
    "line": "9호선",
    "name": "신논현",
    "location": "서초구 반포동",
    "address": "서울특별시 강남구 봉은사로 102",
    "lat": "127.0250313",
    "lon": "37.5047607"
  },
  {
    "line": "9호선",
    "name": "언주",
    "location": "강남구 논현동",
    "address": "서울특별시 강남구 봉은사로 201",
    "lat": "127.0342847",
    "lon": "37.5073235"
  },
  {
    "line": "9호선",
    "name": "선정릉",
    "location": "강남구 논현동",
    "address": "서울특별시 강남구 선릉로 580",
    "lat": "127.0436411",
    "lon": "37.5101377"
  },
  {
    "line": "9호선",
    "name": "삼성중앙",
    "location": "강남구 삼성동",
    "address": "서울특별시 강남구 봉은사로 501",
    "lat": "127.0527056",
    "lon": "37.5129462"
  },
  {
    "line": "9호선",
    "name": "봉은사",
    "location": "강남구 삼성동",
    "address": "서울특별시 강남구 봉은사로 601",
    "lat": "127.0608919",
    "lon": "37.5142504"
  },
  {
    "line": "9호선",
    "name": "종합운동장",
    "location": "송파구 잠실동",
    "address": "서울특별시 송파구 올림픽로 23",
    "lat": "127.0733561",
    "lon": "37.5114034"
  },
  {
    "line": "9호선",
    "name": "삼전",
    "location": "송파구 잠실동",
    "address": "서울특별시 송파구 백제고분로 187",
    "lat": "127.0876288",
    "lon": "37.504515"
  },
  {
    "line": "9호선",
    "name": "석촌고분",
    "location": "송파구 삼전동",
    "address": "서울특별시 송파구 삼학사로 53",
    "lat": "127.096637",
    "lon": "37.5024833"
  },
  {
    "line": "9호선",
    "name": "석촌",
    "location": "송파구 석촌동",
    "address": "서울특별시 송파구 송파대로 439",
    "lat": "127.1063454",
    "lon": "37.5051646"
  },
  {
    "line": "9호선",
    "name": "송파나루",
    "location": "송파구 송파동",
    "address": "서울특별시 송파구 백제고분로 446",
    "lat": "127.1123939",
    "lon": "37.5102755"
  },
  {
    "line": "9호선",
    "name": "한성백제",
    "location": "송파구 방이동",
    "address": "서울특별시 송파구 위례성대로 51",
    "lat": "127.1181845",
    "lon": "37.5164554"
  },
  {
    "line": "9호선",
    "name": "올림픽공원",
    "location": "송파구 방이동",
    "address": "서울특별시 송파구 양재대로 1233",
    "lat": "127.1306002",
    "lon": "37.5162034"
  },
  {
    "line": "9호선",
    "name": "둔촌오륜",
    "location": "송파구 방이동",
    "address": "서울특별시 송파구 강동대로 327",
    "lat": "127.1387689",
    "lon": "37.5192635"
  },
  {
    "line": "9호선",
    "name": "중앙보훈병원",
    "location": "강동구 둔촌동",
    "address": "서울특별시 강동구 동남로",
    "lat": "127.1550312",
    "lon": "37.5288392"
  },
  {
    "line": "분당선",
    "name": "왕십리",
    "location": "성동구 행당동",
    "address": "서울특별시 성동구 왕십리광장로 17",
    "lat": "127.038469",
    "lon": "37.5608351"
  },
  {
    "line": "분당선",
    "name": "서울숲",
    "location": "성동구 성수동1가",
    "address": "서울특별시 성동구 왕십리로 77",
    "lat": "127.0447069",
    "lon": "37.5436554"
  },
  {
    "line": "분당선",
    "name": "압구정로데오",
    "location": "강남구 압구정동",
    "address": "서울특별시 강남구 압구정로 402",
    "lat": "127.0405129",
    "lon": "37.5273936"
  },
  {
    "line": "분당선",
    "name": "강남구청",
    "location": "강남구 논현동",
    "address": "서울특별시 강남구 학동로 346",
    "lat": "127.0413014",
    "lon": "37.5168377"
  },
  {
    "line": "분당선",
    "name": "선정릉",
    "location": "강남구 논현동",
    "address": "서울특별시 강남구 선릉로 580",
    "lat": "127.0436411",
    "lon": "37.5109245"
  },
  {
    "line": "분당선",
    "name": "선릉",
    "location": "강남구 역삼동",
    "address": "서울특별시 강남구 테헤란로 340",
    "lat": "127.0489425",
    "lon": "37.5049146"
  },
  {
    "line": "분당선",
    "name": "한티",
    "location": "강남구 역삼동",
    "address": "서울특별시 강남구 선릉로 228",
    "lat": "127.0528823",
    "lon": "37.4962159"
  },
  {
    "line": "분당선",
    "name": "도곡",
    "location": "강남구 도곡동",
    "address": "서울특별시 강남구 남부순환로 2814",
    "lat": "127.0553234",
    "lon": "37.4913052"
  },
  {
    "line": "분당선",
    "name": "구룡",
    "location": "강남구 개포동",
    "address": "서울특별시 강남구 개포로 403",
    "lat": "127.0592656",
    "lon": "37.4869934"
  },
  {
    "line": "분당선",
    "name": "개포동",
    "location": "강남구 개포동",
    "address": "서울특별시 강남구 개포로 420",
    "lat": "127.0664749",
    "lon": "37.4891746"
  },
  {
    "line": "분당선",
    "name": "대모산입구",
    "location": "강남구 개포동",
    "address": "서울특별시 강남구 개포로 522",
    "lat": "127.0731686",
    "lon": "37.4913547"
  },
  {
    "line": "분당선",
    "name": "수서",
    "location": "강남구 수서동",
    "address": "서울특별시 강남구 광평로 270",
    "lat": "127.1018592",
    "lon": "37.48768"
  },
  {
    "line": "분당선",
    "name": "복정",
    "location": "송파구 장지동",
    "address": "서울특별시 송파구 송파대로 6",
    "lat": "127.1267713",
    "lon": "37.4697697"
  },
  {
    "line": "신분당선",
    "name": "강남",
    "location": "강남구 역삼동",
    "address": "서울특별시 강남구 강남대로 396",
    "lat": "127.0283079",
    "lon": "37.4964196"
  },
  {
    "line": "신분당선",
    "name": "양재",
    "location": "강남구 도곡동",
    "address": "서울특별시 서초구 남부순환로 2585",
    "lat": "127.0345442",
    "lon": "37.4836714"
  },
  {
    "line": "신분당선",
    "name": "양재시민의숲",
    "location": "서초구 양재동",
    "address": "서울특별시 서초구 매헌로 116",
    "lat": "127.0383258",
    "lon": "37.4700185"
  },
  {
    "line": "신분당선",
    "name": "청계산입구",
    "location": "서초구 신원동",
    "address": "서울특별시 서초구 청계산로 179",
    "lat": "127.054632",
    "lon": "37.4482234"
  }
]
